[
  {
    "country": "馬來西亞",
    "cn_country": "",
    "en_country": "",
    "name": "Pantai Premier Pathology",
    "intro": "馬來西亞規模最大的醫學診斷企業之一，隸屬全球知名醫療集團IHH Healthcare旗下。",
    "cn_intro": "",
    "en_intro": "",
    "link": "https://www.premierpathology.com.my",
    "lat": 3.8124274936333666,
    "lng": 101.60320871733128
  },
  {
    "country": "菲律賓",
    "cn_country": "",
    "en_country": "",
    "name": "Global Medical Technologies ",
    "intro": "一家位於菲律賓的醫療技術公司，主要業務為向菲律賓國內引進世界各地的先進技術，以向醫護人員、患者及消費者提供健康測試和診斷技術的選擇。",
    "cn_intro": "",
    "en_intro": "",
    "link": "https://gmtmanila.com/",
    "lat": 14.622741230780443,
    "lng": 120.9678862363281
  },
  {
    "country": "台灣",
    "cn_country": "",
    "en_country": "",
    "name": "Yourgene Health",
    "intro": "一家總部設於英國且於倫敦證交所上市的分子診斷公司，主要從事基因測序技術開發和商業化，其業務遍佈台灣、新加坡、美國及加拿大等地區。",
    "cn_intro": "",
    "en_intro": "",
    "link": "https://www.yourgene-health.com",
    "lat": 24.007028114876242,
    "lng": 121.07166512736177
  },
  {
    "country": "新加坡",
    "cn_country": "",
    "en_country": "",
    "name": "Lifestrands Genomics",
    "intro": "一家業務橫跨新加坡、馬來西亞及越南的基因科技集團，隸屬醫學診斷集團Pathology Asia Holdings旗下，其子公司GenomixLab是馬來西亞第一家獲得CAP認證的醫學實驗室。",
    "cn_intro": "",
    "en_intro": "",
    "link": "",
    "lat": 1.3579294889776585,
    "lng": 103.86964607814394
  },
  {
    "country": "菲律賓",
    "cn_country": "",
    "en_country": "",
    "name": "Pascific Laboratories",
    "intro": "一家業務橫跨菲律賓、新加坡及印度的病理診斷集團，主要業務為以精準醫療為方針的病理學及分子診斷。",
    "cn_intro": "",
    "en_intro": "",
    "link": "https://www.pascific.com/",
    "lat": 14.622741230780443,
    "lng": 120.9678862363281
  },
  {
    "country": "卡塔爾",
    "cn_country": "",
    "en_country": "",
    "name": "Tempcon",
    "intro": "一家總部位於多哈的醫療器械供應商，致力為當地的私人醫療機構、公立醫療服務、連鎖診所及大型企業提供從日常消費品、試劑到高端科技型的醫療器械。",
    "cn_intro": "",
    "en_intro": "",
    "link": "https://www.tempconqatar.com/index",
    "lat": 25.310775003022403,
    "lng": 51.195632901833974
  },
  {
    "country": "澳門",
    "cn_country": "",
    "en_country": "",
    "name": "Catalyst Bioscience",
    "intro": "一家位於澳門的生物科技經銷商，致力為當地的醫療機構提供高端科技測試。",
    "cn_intro": "",
    "en_intro": "",
    "link": "",
    "lat": 22.158991865767508,
    "lng": 113.57665634534713
  }
]
